{"type":"FeatureCollection","features":[{"type":"Feature","properties":{"OBJECTID":"1","LONGITUDE":"4.885135088","LATITUDE":"52.35997087","ADDRESS":"Museumstraat 1, 1071 XX Amsterdam, Nederland","NAME":"Rijksmuseum","MORNING":"1","NOON":"1","NIGHT":"0","TYPE":"indoor"},"geometry":{"type":"Point","coordinates":[4.885135,52.359971]}},{"type":"Feature","properties":{"OBJECTID":"8","LONGITUDE":"4.901224363","LATITUDE":"52.36939099","ADDRESS":"Jodenbreestraat 4, 1011 NK Amsterdam, Nederland","NAME":"Rembrandt House Museum","MORNING":"1","NOON":"1","NIGHT":"0","TYPE":"indoor"},"geometry":{"type":"Point","coordinates":[4.901224,52.369391]}},{"type":"Feature","properties":{"OBJECTID":"10","LONGITUDE":"4.922375607","LATITUDE":"52.36261185","ADDRESS":"Linnaeusstraat 2, 1092 CK Amsterdam, Nederland","NAME":"Tropenmuseum","MORNING":"1","NOON":"1","NIGHT":"0","TYPE":"indoor"},"geometry":{"type":"Point","coordinates":[4.922376,52.362612]}},{"type":"Feature","properties":{"OBJECTID":"12","LONGITUDE":"4.879755561","LATITUDE":"52.35803851","ADDRESS":"Museumplein 10, 1071 DJ Amsterdam, Nederland","NAME":"Stedelijk Museum","MORNING":"1","NOON":"1","NIGHT":"0","TYPE":"indoor"},"geometry":{"type":"Point","coordinates":[4.879756,52.358039]}},{"type":"Feature","properties":{"OBJECTID":"17","LONGITUDE":"4.87370704","LATITUDE":"52.3904593","ADDRESS":"Oostzaanstraat 45, 1013 WG Amsterdam, Nederland","NAME":"Museum Het Schip","MORNING":"1","NOON":"1","NIGHT":"0","TYPE":"indoor"},"geometry":{"type":"Point","coordinates":[4.873707,52.390459]}},{"type":"Feature","properties":{"OBJECTID":"18","LONGITUDE":"4.90230056","LATITUDE":"52.38375746","ADDRESS":"IJpromenade 1, 1031 KT Amsterdam, Nederland","NAME":"Eye Film Museum","MORNING":"1","NOON":"1","NIGHT":"0","TYPE":"indoor"},"geometry":{"type":"Point","coordinates":[4.902301,52.383757]}},{"type":"Feature","properties":{"OBJECTID":"19","LONGITUDE":"4.919909709","LATITUDE":"52.38543523","ADDRESS":"Meeuwenlaan 88, 1021 JK Amsterdam, Nederland","NAME":"WONDR Experience","MORNING":"1","NOON":"1","NIGHT":"0","TYPE":"indoor"},"geometry":{"type":"Point","coordinates":[4.91991,52.385435]}},{"type":"Feature","properties":{"OBJECTID":"20","LONGITUDE":"4.914723808","LATITUDE":"52.37176382","ADDRESS":"Kattenburgerplein 1, 1018 KK Amsterdam, Nederland","NAME":"The National Maritime Museum","MORNING":"1","NOON":"1","NIGHT":"0","TYPE":"indoor"},"geometry":{"type":"Point","coordinates":[4.914724,52.371764]}},{"type":"Feature","properties":{"OBJECTID":"23","LONGITUDE":"4.90278178","LATITUDE":"52.36576475","ADDRESS":"Amstel 51, 1018 DR Amsterdam, Nederland","NAME":"Hermitage Amsterdam","MORNING":"1","NOON":"1","NIGHT":"0","TYPE":"indoor"},"geometry":{"type":"Point","coordinates":[4.902782,52.365765]}},{"type":"Feature","properties":{"OBJECTID":"24","LONGITUDE":"4.903813458","LATITUDE":"52.36711915","ADDRESS":"Nieuwe Amstelstraat 1, 1011 PL Amsterdam, Nederland","NAME":"Jewish Museum","MORNING":"1","NOON":"1","NIGHT":"0","TYPE":"indoor"},"geometry":{"type":"Point","coordinates":[4.903813,52.367119]}},{"type":"Feature","properties":{"OBJECTID":"25","LONGITUDE":"4.890264841","LATITUDE":"52.37361122","ADDRESS":"Nieuwezijds Voorburgwal 182I, 1012 SJ Amsterdam, Nederland","NAME":"Magna Plaza","MORNING":"1","NOON":"1","NIGHT":"0","TYPE":"indoor"},"geometry":{"type":"Point","coordinates":[4.890265,52.373611]}},{"type":"Feature","properties":{"OBJECTID":"27","LONGITUDE":"4.894674689","LATITUDE":"52.36652812","ADDRESS":"Reguliersbreestraat 26-34, 1017 CN Amsterdam, Nederland","NAME":"Pathe Tuschinski","MORNING":"1","NOON":"1","NIGHT":"0","TYPE":"indoor"},"geometry":{"type":"Point","coordinates":[4.894675,52.366528]}}]}