{"type":"FeatureCollection","features":[{"type":"Feature","properties":{"OBJECTID":"2","LONGITUDE":"4.886196218","LATITUDE":"52.37028328","ADDRESS":" Wolvenstraat 9, 1016 EM Amsterdam, Nederland","NAME":"De 9 Straatjes","MORNING":"1","NOON":"1","NIGHT":"1","TYPE":"outdoor"},"geometry":{"type":"Point","coordinates":[4.886196,52.370283]}},{"type":"Feature","properties":{"OBJECTID":"3","LONGITUDE":"4.914165372","LATITUDE":"52.3542341","ADDRESS":"Platanenweg, 1091 KS Amsterdam, Țările de Jos","NAME":"Street Art Platanenweg","MORNING":"1","NOON":"1","NIGHT":"1","TYPE":"outdoor"},"geometry":{"type":"Point","coordinates":[4.914165,52.354234]}},{"type":"Feature","properties":{"OBJECTID":"6","LONGITUDE":"4.888072103","LATITUDE":"52.38561728","ADDRESS":"Prinseneiland 2, 1013 LR Amsterdam, Nederland","NAME":"Quartier marecages","MORNING":"1","NOON":"1","NIGHT":"1","TYPE":"outdoor"},"geometry":{"type":"Point","coordinates":[4.888072,52.385617]}},{"type":"Feature","properties":{"OBJECTID":"13","LONGITUDE":"4.898206043","LATITUDE":"52.37437875","ADDRESS":"Oudekerksplein 23, 1012 GX Amsterdam, Nederland","NAME":"Oude Kerk","MORNING":"1","NOON":"1","NIGHT":"1","TYPE":"outdoor"},"geometry":{"type":"Point","coordinates":[4.898206,52.374379]}},{"type":"Feature","properties":{"OBJECTID":"15","LONGITUDE":"4.895407884","LATITUDE":"52.35497842","ADDRESS":"Sarphatipark 37I, 1073 CP Amsterdam, Nederland","NAME":"Sarphatipark","MORNING":"1","NOON":"1","NIGHT":"1","TYPE":"outdoor"},"geometry":{"type":"Point","coordinates":[4.895408,52.354978]}},{"type":"Feature","properties":{"OBJECTID":"16","LONGITUDE":"4.852742283","LATITUDE":"52.37349982","ADDRESS":"Jan van Galenstraat, Amsterdam, Nederland","NAME":"Erasmuspark","MORNING":"1","NOON":"1","NIGHT":"1","TYPE":"outdoor"},"geometry":{"type":"Point","coordinates":[4.852742,52.3735]}},{"type":"Feature","properties":{"OBJECTID":"26","LONGITUDE":"4.891038456","LATITUDE":"52.37316712","ADDRESS":"Nieuwezijds Voorburgwal 147, 1012 RJ Amsterdam, Nederland","NAME":"Paleis op de Dam","MORNING":"1","NOON":"1","NIGHT":"1","TYPE":"outdoor"},"geometry":{"type":"Point","coordinates":[4.891038,52.373167]}},{"type":"Feature","properties":{"OBJECTID":"28","LONGITUDE":"4.896864408","LATITUDE":"52.36626534","ADDRESS":"1017 CT Amsterdam, Nederland","NAME":"Remrandtplein","MORNING":"1","NOON":"1","NIGHT":"1","TYPE":"outdoor"},"geometry":{"type":"Point","coordinates":[4.896864,52.366265]}},{"type":"Feature","properties":{"OBJECTID":"29","LONGITUDE":"4.905631354","LATITUDE":"52.37201063","ADDRESS":"Oudeschans 2, 1011 KX Amsterdam, Nederland","NAME":"Montelbaanstoren","MORNING":"1","NOON":"1","NIGHT":"1","TYPE":"outdoor"},"geometry":{"type":"Point","coordinates":[4.905631,52.372011]}}]}